{
    "type": "FeatureCollection",
    "features": [
        {
            "type": "Feature",
            "geometry": {
                "type": "Point",
                "coordinates": [13.404954, 52.520008]
            },
            "properties": {
                "City": "Berlin",
                "Country": "Germany",
                "Award": "3 Stars"
            }
        },
        {
            "type": "Feature",
            "geometry": {
                "type": "Point",
                "coordinates": [2.352222, 48.856614]
            },
            "properties": {
                "City": "Paris",
                "Country": "France",
                "Award": "3 Stars"
            }
        },
        {
            "type": "Feature",
            "geometry": {
                "type": "Point",
                "coordinates": [-0.127647, 51.507322]
            },
            "properties": {
                "City": "London",
                "Country": "United Kingdom",
                "Award": "3 Stars"
            }
        },
        {
            "type": "Feature",
            "geometry": {
                "type": "Point",
                "coordinates": [6.632273, 46.519962]
            },
            "properties": {
                "City": "Lausanne",
                "Country": "Switzerland",
                "Award": "3 Stars"
            }
        },
        {
            "type": "Feature",
            "geometry": {
                "type": "Point",
                "coordinates": [8.541694, 47.376886]
            },
            "properties": {
                "City": "Zurich",
                "Country": "Switzerland",
                "Award": "3 Stars"
            }
        },
        {
            "type": "Feature",
            "geometry": {
                "type": "Point",
                "coordinates": [
                    139.761203,
                    35.669667
                ]
            },
            "properties": {
                "Name": "L'OSIER",
                "City": "Tokyo",
                "Country": "Japan",
                "Award": "3 Stars"
            }
        },
        {
            "type": "Feature",
            "geometry": {
                "type": "Point",
                "coordinates": [
                    139.733551,
                    35.655993
                ]
            },
            "properties": {
                "Name": "Azabu Kadowaki",
                "City": "Tokyo",
                "Country": "Japan",
                "Award": "3 Stars"
            }
        },
        {
            "type": "Feature",
            "geometry": {
                "type": "Point",
                "coordinates": [
                    139.741008,
                    35.700701
                ]
            },
            "properties": {
                "Name": "Kohaku",
                "City": "Tokyo",
                "Country": "Japan",
                "Award": "3 Stars"
            }
        },
        {
            "type": "Feature",
            "geometry": {
                "type": "Point",
                "coordinates": [
                    139.759203,
                    35.669269
                ]
            },
            "properties": {
                "Name": "Harutaka",
                "City": "Tokyo",
                "Country": "Japan",
                "Award": "3 Stars"
            }
        },
        {
            "type": "Feature",
            "geometry": {
                "type": "Point",
                "coordinates": [
                    139.748,
                    35.6658
                ]
            },
            "properties": {
                "Name": "Kanda",
                "City": "Tokyo",
                "Country": "Japan",
                "Award": "3 Stars"
            }
        },
        {
            "type": "Feature",
            "geometry": {
                "type": "Point",
                "coordinates": [
                    139.735449,
                    35.590865
                ]
            },
            "properties": {
                "Name": "Makimura",
                "City": "Tokyo",
                "Country": "Japan",
                "Award": "3 Stars"
            }
        },
        {
            "type": "Feature",
            "geometry": {
                "type": "Point",
                "coordinates": [
                    139.732977,
                    35.624038
                ]
            },
            "properties": {
                "Name": "Quintessence",
                "City": "Tokyo",
                "Country": "Japan",
                "Award": "3 Stars"
            }
        },
        {
            "type": "Feature",
            "geometry": {
                "type": "Point",
                "coordinates": [
                    139.759193,
                    35.673583
                ]
            },
            "properties": {
                "Name": "RyuGin",
                "City": "Tokyo",
                "Country": "Japan",
                "Award": "3 Stars"
            }
        },
        {
            "type": "Feature",
            "geometry": {
                "type": "Point",
                "coordinates": [
                    139.719454,
                    35.660299
                ]
            },
            "properties": {
                "Name": "L'Effervescence",
                "City": "Tokyo",
                "Country": "Japan",
                "Award": "3 Stars"
            }
        },
        {
            "type": "Feature",
            "geometry": {
                "type": "Point",
                "coordinates": [
                    139.714528,
                    35.641903
                ]
            },
            "properties": {
                "Name": "Jo\u00ebl Robuchon",
                "City": "Tokyo",
                "Country": "Japan",
                "Award": "3 Stars"
            }
        },
        {
            "type": "Feature",
            "geometry": {
                "type": "Point",
                "coordinates": [
                    139.739466,
                    35.701212
                ]
            },
            "properties": {
                "Name": "Kagurazaka Ishikawa",
                "City": "Tokyo",
                "Country": "Japan",
                "Award": "3 Stars"
            }
        },
        {
            "type": "Feature",
            "geometry": {
                "type": "Point",
                "coordinates": [
                    139.728395,
                    35.649578
                ]
            },
            "properties": {
                "Name": "Sazenka",
                "City": "Tokyo",
                "Country": "Japan",
                "Award": "3 Stars"
            }
        },
        {
            "type": "Feature",
            "geometry": {
                "type": "Point",
                "coordinates": [
                    -6.2164435,
                    36.6033273
                ]
            },
            "properties": {
                "Name": "Aponiente",
                "City": "El Puerto de Santa Mar\u00eda",
                "Country": "Spain",
                "Award": "3 Stars"
            }
        },
        {
            "type": "Feature",
            "geometry": {
                "type": "Point",
                "coordinates": [
                    2.807927,
                    41.9932026
                ]
            },
            "properties": {
                "Name": "El Celler de Can Roca",
                "City": "Girona",
                "Country": "Spain",
                "Award": "3 Stars"
            }
        },
        {
            "type": "Feature",
            "geometry": {
                "type": "Point",
                "coordinates": [
                    -2.81454,
                    43.26065
                ]
            },
            "properties": {
                "Name": "Azurmendi",
                "City": "Larrabetzu",
                "Country": "Spain",
                "Award": "3 Stars"
            }
        },
        {
            "type": "Feature",
            "geometry": {
                "type": "Point",
                "coordinates": [
                    -3.6988243,
                    43.4124884
                ]
            },
            "properties": {
                "Name": "Cenador de Am\u00f3s",
                "City": "Villaverde de Pontones",
                "Country": "Spain",
                "Award": "3 Stars"
            }
        },
        {
            "type": "Feature",
            "geometry": {
                "type": "Point",
                "coordinates": [
                    -2.0152402,
                    43.2664755
                ]
            },
            "properties": {
                "Name": "Mart\u00edn Berasategui",
                "City": "Lasarte - Oria",
                "Country": "Spain",
                "Award": "3 Stars"
            }
        },
        {
            "type": "Feature",
            "geometry": {
                "type": "Point",
                "coordinates": [
                    -6.3713456,
                    39.4730183
                ]
            },
            "properties": {
                "Name": "Atrio",
                "City": "C\u00e1ceres",
                "Country": "Spain",
                "Award": "3 Stars"
            }
        },
        {
            "type": "Feature",
            "geometry": {
                "type": "Point",
                "coordinates": [
                    0.0852209,
                    38.8537884
                ]
            },
            "properties": {
                "Name": "Quique Dacosta",
                "City": "D\u00e9nia",
                "Country": "Spain",
                "Award": "3 Stars"
            }
        },
        {
            "type": "Feature",
            "geometry": {
                "type": "Point",
                "coordinates": [
                    -1.9490932,
                    43.3214016
                ]
            },
            "properties": {
                "Name": "Arzak",
                "City": "Donostia / San Sebasti\u00e1n",
                "Country": "Spain",
                "Award": "3 Stars"
            }
        },
        {
            "type": "Feature",
            "geometry": {
                "type": "Point",
                "coordinates": [
                    2.1622018,
                    41.3936278
                ]
            },
            "properties": {
                "Name": "Lasarte",
                "City": "Barcelona",
                "Country": "Spain",
                "Award": "3 Stars"
            }
        },
        {
            "type": "Feature",
            "geometry": {
                "type": "Point",
                "coordinates": [
                    2.1530369,
                    41.3879756
                ]
            },
            "properties": {
                "Name": "Disfrutar",
                "City": "Barcelona",
                "Country": "Spain",
                "Award": "3 Stars"
            }
        },
        {
            "type": "Feature",
            "geometry": {
                "type": "Point",
                "coordinates": [
                    -2.0731493,
                    43.3027805
                ]
            },
            "properties": {
                "Name": "Akela\u0155e",
                "City": "Donostia / San Sebasti\u00e1n",
                "Country": "Spain",
                "Award": "3 Stars"
            }
        },
        {
            "type": "Feature",
            "geometry": {
                "type": "Point",
                "coordinates": [
                    2.1367664,
                    41.4103822
                ]
            },
            "properties": {
                "Name": "ABaC",
                "City": "Barcelona",
                "Country": "Spain",
                "Award": "3 Stars"
            }
        },
        {
            "type": "Feature",
            "geometry": {
                "type": "Point",
                "coordinates": [
                    2.1400168,
                    41.3865273
                ]
            },
            "properties": {
                "Name": "Cocina Hermanos Torres",
                "City": "Barcelona",
                "Country": "Spain",
                "Award": "3 Stars"
            }
        },
        {
            "type": "Feature",
            "geometry": {
                "type": "Point",
                "coordinates": [
                    -4.7585272,
                    37.8899393
                ]
            },
            "properties": {
                "Name": "Noor",
                "City": "C\u00f3rdoba",
                "Country": "Spain",
                "Award": "3 Stars"
            }
        },
        {
            "type": "Feature",
            "geometry": {
                "type": "Point",
                "coordinates": [
                    -3.6856715,
                    40.4582913
                ]
            },
            "properties": {
                "Name": "DiverXO",
                "City": "Madrid",
                "Country": "Spain",
                "Award": "3 Stars"
            }
        },
        {
            "type": "Feature",
            "geometry": {
                "type": "Point",
                "coordinates": [
                    121.474049,
                    31.221807
                ]
            },
            "properties": {
                "Name": "Taian Table",
                "City": "Shanghai",
                "Country": "China Mainland",
                "Award": "3 Stars"
            }
        },
        {
            "type": "Feature",
            "geometry": {
                "type": "Point",
                "coordinates": [
                    121.48509,
                    31.240358
                ]
            },
            "properties": {
                "Name": "Ultraviolet by Paul Pairet",
                "City": "Shanghai",
                "Country": "China Mainland",
                "Award": "3 Stars"
            }
        },
        {
            "type": "Feature",
            "geometry": {
                "type": "Point",
                "coordinates": [
                    11.2621974,
                    43.770066
                ]
            },
            "properties": {
                "Name": "Enoteca Pinchiorri",
                "City": "Florence",
                "Country": "Italy",
                "Award": "3 Stars"
            }
        },
        {
            "type": "Feature",
            "geometry": {
                "type": "Point",
                "coordinates": [
                    13.2206503,
                    43.7194609
                ]
            },
            "properties": {
                "Name": "Uliassi",
                "City": "Senigallia",
                "Country": "Italy",
                "Award": "3 Stars"
            }
        },
        {
            "type": "Feature",
            "geometry": {
                "type": "Point",
                "coordinates": [
                    8.4159486,
                    45.7964778
                ]
            },
            "properties": {
                "Name": "Villa Crespi",
                "City": "Orta San Giulio",
                "Country": "Italy",
                "Award": "3 Stars"
            }
        },
        {
            "type": "Feature",
            "geometry": {
                "type": "Point",
                "coordinates": [
                    14.094554,
                    41.7800349
                ]
            },
            "properties": {
                "Name": "Reale",
                "City": "Castel di Sangro",
                "Country": "Italy",
                "Award": "3 Stars"
            }
        },
        {
            "type": "Feature",
            "geometry": {
                "type": "Point",
                "coordinates": [
                    11.8096633,
                    45.4215425
                ]
            },
            "properties": {
                "Name": "Le Calandre",
                "City": "Rubano",
                "Country": "Italy",
                "Award": "3 Stars"
            }
        },
        {
            "type": "Feature",
            "geometry": {
                "type": "Point",
                "coordinates": [
                    9.161865,
                    45.4516
                ]
            },
            "properties": {
                "Name": "Enrico Bartolini al Mudec",
                "City": "Milan",
                "Country": "Italy",
                "Award": "3 Stars"
            }
        },
        {
            "type": "Feature",
            "geometry": {
                "type": "Point",
                "coordinates": [
                    12.4461151,
                    41.9187946
                ]
            },
            "properties": {
                "Name": "La Pergola",
                "City": "Rome",
                "Country": "Italy",
                "Award": "3 Stars"
            }
        },
        {
            "type": "Feature",
            "geometry": {
                "type": "Point",
                "coordinates": [
                    11.949283,
                    46.7927709
                ]
            },
            "properties": {
                "Name": "Atelier Moessmer Norbert Niederkofler",
                "City": "Brunico",
                "Country": "Italy",
                "Award": "3 Stars"
            }
        },
        {
            "type": "Feature",
            "geometry": {
                "type": "Point",
                "coordinates": [
                    8.0359341,
                    44.7005555
                ]
            },
            "properties": {
                "Name": "Piazza Duomo",
                "City": "Alba",
                "Country": "Italy",
                "Award": "3 Stars"
            }
        },
        {
            "type": "Feature",
            "geometry": {
                "type": "Point",
                "coordinates": [
                    14.3537561,
                    40.5857091
                ]
            },
            "properties": {
                "Name": "Quattro Passi",
                "City": "Marina del Cantone",
                "Country": "Italy",
                "Award": "3 Stars"
            }
        },
        {
            "type": "Feature",
            "geometry": {
                "type": "Point",
                "coordinates": [
                    10.9215518,
                    44.6448099
                ]
            },
            "properties": {
                "Name": "Osteria Francescana",
                "City": "Modena",
                "Country": "Italy",
                "Award": "3 Stars"
            }
        },
        {
            "type": "Feature",
            "geometry": {
                "type": "Point",
                "coordinates": [
                    10.3565788,
                    45.1712728
                ]
            },
            "properties": {
                "Name": "Dal Pescatore",
                "City": "Runate",
                "Country": "Italy",
                "Award": "3 Stars"
            }
        },
        {
            "type": "Feature",
            "geometry": {
                "type": "Point",
                "coordinates": [
                    9.7692511,
                    45.6756778
                ]
            },
            "properties": {
                "Name": "Da Vittorio",
                "City": "Brusaporto",
                "Country": "Italy",
                "Award": "3 Stars"
            }
        },
        {
            "type": "Feature",
            "geometry": {
                "type": "Point",
                "coordinates": [
                    -78.1595348,
                    38.7134767
                ]
            },
            "properties": {
                "Name": "The Inn at Little Washington",
                "City": "Washington",
                "Country": "USA",
                "Award": "3 Stars"
            }
        },
        {
            "type": "Feature",
            "geometry": {
                "type": "Point",
                "coordinates": [
                    -73.9825882,
                    40.7680545
                ]
            },
            "properties": {
                "Name": "Per Se",
                "City": "New York",
                "Country": "USA",
                "Award": "3 Stars"
            }
        },
        {
            "type": "Feature",
            "geometry": {
                "type": "Point",
                "coordinates": [
                    -73.98223,
                    40.76177
                ]
            },
            "properties": {
                "Name": "Le Bernardin",
                "City": "New York",
                "Country": "USA",
                "Award": "3 Stars"
            }
        },
        {
            "type": "Feature",
            "geometry": {
                "type": "Point",
                "coordinates": [
                    -73.9872414,
                    40.7415543
                ]
            },
            "properties": {
                "Name": "Eleven Madison Park",
                "City": "New York",
                "Country": "USA",
                "Award": "3 Stars"
            }
        },
        {
            "type": "Feature",
            "geometry": {
                "type": "Point",
                "coordinates": [
                    -73.98234,
                    40.76819
                ]
            },
            "properties": {
                "Name": "Masa",
                "City": "New York",
                "Country": "USA",
                "Award": "3 Stars"
            }
        },
        {
            "type": "Feature",
            "geometry": {
                "type": "Point",
                "coordinates": [
                    -87.6606324,
                    41.8850485
                ]
            },
            "properties": {
                "Name": "Smyth",
                "City": "Chicago",
                "Country": "USA",
                "Award": "3 Stars"
            }
        },
        {
            "type": "Feature",
            "geometry": {
                "type": "Point",
                "coordinates": [
                    -87.648174,
                    41.9132737
                ]
            },
            "properties": {
                "Name": "Alinea",
                "City": "Chicago",
                "Country": "USA",
                "Award": "3 Stars"
            }
        },
        {
            "type": "Feature",
            "geometry": {
                "type": "Point",
                "coordinates": [
                    116.461892,
                    39.910992
                ]
            },
            "properties": {
                "Name": "Chao Shang Chao (Chaoyang)",
                "City": "Beijing",
                "Country": "China Mainland",
                "Award": "3 Stars"
            }
        },
        {
            "type": "Feature",
            "geometry": {
                "type": "Point",
                "coordinates": [
                    116.450148,
                    39.94638
                ]
            },
            "properties": {
                "Name": "Xin Rong Ji (Xinyuan South Road)",
                "City": "Beijing",
                "Country": "China Mainland",
                "Award": "3 Stars"
            }
        },
        {
            "type": "Feature",
            "geometry": {
                "type": "Point",
                "coordinates": [
                    116.410004,
                    39.946681
                ]
            },
            "properties": {
                "Name": "King's Joy",
                "City": "Beijing",
                "Country": "China Mainland",
                "Award": "3 Stars"
            }
        },
        {
            "type": "Feature",
            "geometry": {
                "type": "Point",
                "coordinates": [
                    9.5037741,
                    47.0002941
                ]
            },
            "properties": {
                "Name": "Memories",
                "City": "Bad Ragaz",
                "Country": "Switzerland",
                "Award": "3 Stars"
            }
        },
        {
            "type": "Feature",
            "geometry": {
                "type": "Point",
                "coordinates": [
                    6.5766897,
                    46.553994
                ]
            },
            "properties": {
                "Name": "Restaurant de l'H\u00f4tel de Ville",
                "City": "Crissier",
                "Country": "Switzerland",
                "Award": "3 Stars"
            }
        },
        {
            "type": "Feature",
            "geometry": {
                "type": "Point",
                "coordinates": [
                    7.5875706,
                    47.5604261
                ]
            },
            "properties": {
                "Name": "Cheval Blanc by Peter Knogl",
                "City": "Basel",
                "Country": "Switzerland",
                "Award": "3 Stars"
            }
        },
        {
            "type": "Feature",
            "geometry": {
                "type": "Point",
                "coordinates": [
                    9.4462648,
                    46.7211969
                ]
            },
            "properties": {
                "Name": "Schloss Schauenstein",
                "City": "F\u00fcrstenau",
                "Country": "Switzerland",
                "Award": "3 Stars"
            }
        },
        {
            "type": "Feature",
            "geometry": {
                "type": "Point",
                "coordinates": [
                    13.5382362,
                    46.2472961
                ]
            },
            "properties": {
                "Name": "Hi\u0161a Franko",
                "City": "Kobarid",
                "Country": "Slovenia",
                "Award": "3 Stars"
            }
        },
        {
            "type": "Feature",
            "geometry": {
                "type": "Point",
                "coordinates": [
                    121.51696,
                    25.049071
                ]
            },
            "properties": {
                "Name": "Le Palais",
                "City": "Taipei",
                "Country": "Taiwan",
                "Award": "3 Stars"
            }
        },
        {
            "type": "Feature",
            "geometry": {
                "type": "Point",
                "coordinates": [
                    121.559303,
                    25.082896
                ]
            },
            "properties": {
                "Name": "Ta\u00efrroir",
                "City": "Taipei",
                "Country": "Taiwan",
                "Award": "3 Stars"
            }
        },
        {
            "type": "Feature",
            "geometry": {
                "type": "Point",
                "coordinates": [
                    120.6285199,
                    24.1504863
                ]
            },
            "properties": {
                "Name": "JL Studio",
                "City": "Taichung",
                "Country": "Taiwan",
                "Award": "3 Stars"
            }
        },
        {
            "type": "Feature",
            "geometry": {
                "type": "Point",
                "coordinates": [
                    -122.43586,
                    37.79835
                ]
            },
            "properties": {
                "Name": "Atelier Crenn",
                "City": "San Francisco",
                "Country": "USA",
                "Award": "3 Stars"
            }
        },
        {
            "type": "Feature",
            "geometry": {
                "type": "Point",
                "coordinates": [
                    -117.1988908,
                    32.9412972
                ]
            },
            "properties": {
                "Name": "Addison",
                "City": "San Diego",
                "Country": "USA",
                "Award": "3 Stars"
            }
        },
        {
            "type": "Feature",
            "geometry": {
                "type": "Point",
                "coordinates": [
                    -122.4032607,
                    37.7975054
                ]
            },
            "properties": {
                "Name": "Quince",
                "City": "San Francisco",
                "Country": "USA",
                "Award": "3 Stars"
            }
        },
        {
            "type": "Feature",
            "geometry": {
                "type": "Point",
                "coordinates": [
                    -122.8697229,
                    38.6122599
                ]
            },
            "properties": {
                "Name": "SingleThread",
                "City": "Healdsburg",
                "Country": "USA",
                "Award": "3 Stars"
            }
        },
        {
            "type": "Feature",
            "geometry": {
                "type": "Point",
                "coordinates": [
                    -122.3990601,
                    37.7853763
                ]
            },
            "properties": {
                "Name": "Benu",
                "City": "San Francisco",
                "Country": "USA",
                "Award": "3 Stars"
            }
        },
        {
            "type": "Feature",
            "geometry": {
                "type": "Point",
                "coordinates": [
                    -122.36474,
                    38.40443
                ]
            },
            "properties": {
                "Name": "The French Laundry",
                "City": "Yountville",
                "Country": "USA",
                "Award": "3 Stars"
            }
        },
        {
            "type": "Feature",
            "geometry": {
                "type": "Point",
                "coordinates": [
                    103.84042,
                    1.2796271
                ]
            },
            "properties": {
                "Name": "Z\u00e9n",
                "City": "Singapore",
                "Country": "Singapore",
                "Award": "3 Stars"
            }
        },
        {
            "type": "Feature",
            "geometry": {
                "type": "Point",
                "coordinates": [
                    103.83204,
                    1.30626
                ]
            },
            "properties": {
                "Name": "Les Amis",
                "City": "Singapore",
                "Country": "Singapore",
                "Award": "3 Stars"
            }
        },
        {
            "type": "Feature",
            "geometry": {
                "type": "Point",
                "coordinates": [
                    103.8516,
                    1.2896459
                ]
            },
            "properties": {
                "Name": "Odette",
                "City": "Singapore",
                "Country": "Singapore",
                "Award": "3 Stars"
            }
        },
        {
            "type": "Feature",
            "geometry": {
                "type": "Point",
                "coordinates": [
                    12.6106175,
                    55.6833118
                ]
            },
            "properties": {
                "Name": "noma",
                "City": "Copenhagen",
                "Country": "Denmark",
                "Award": "3 Stars"
            }
        },
        {
            "type": "Feature",
            "geometry": {
                "type": "Point",
                "coordinates": [
                    10.7586363,
                    59.9075293
                ]
            },
            "properties": {
                "Name": "Maaemo",
                "City": "Oslo",
                "Country": "Norway",
                "Award": "3 Stars"
            }
        },
        {
            "type": "Feature",
            "geometry": {
                "type": "Point",
                "coordinates": [
                    18.0597575,
                    59.3341673
                ]
            },
            "properties": {
                "Name": "Frantz\u00e9n",
                "City": "Stockholm",
                "Country": "Sweden",
                "Award": "3 Stars"
            }
        },
        {
            "type": "Feature",
            "geometry": {
                "type": "Point",
                "coordinates": [
                    12.5725289,
                    55.7040847
                ]
            },
            "properties": {
                "Name": "Geranium",
                "City": "Copenhagen",
                "Country": "Denmark",
                "Award": "3 Stars"
            }
        },
        {
            "type": "Feature",
            "geometry": {
                "type": "Point",
                "coordinates": [
                    114.15529,
                    22.282766
                ]
            },
            "properties": {
                "Name": "Ta Vie",
                "City": "Hong Kong",
                "Country": "Hong Kong SAR China",
                "Award": "3 Stars"
            }
        },
        {
            "type": "Feature",
            "geometry": {
                "type": "Point",
                "coordinates": [
                    114.1590497,
                    22.2857149
                ]
            },
            "properties": {
                "Name": "Caprice",
                "City": "Hong Kong",
                "Country": "Hong Kong SAR China",
                "Award": "3 Stars"
            }
        },
        {
            "type": "Feature",
            "geometry": {
                "type": "Point",
                "coordinates": [
                    114.1574159,
                    22.2808567
                ]
            },
            "properties": {
                "Name": "Sushi Shikon",
                "City": "Hong Kong",
                "Country": "Hong Kong SAR China",
                "Award": "3 Stars"
            }
        },
        {
            "type": "Feature",
            "geometry": {
                "type": "Point",
                "coordinates": [
                    114.1698,
                    22.296572
                ]
            },
            "properties": {
                "Name": "T'ang Court",
                "City": "Hong Kong",
                "Country": "Hong Kong SAR China",
                "Award": "3 Stars"
            }
        },
        {
            "type": "Feature",
            "geometry": {
                "type": "Point",
                "coordinates": [
                    113.54395,
                    22.189949
                ]
            },
            "properties": {
                "Name": "Robuchon au D\u00f4me",
                "City": "Macau",
                "Country": "Macau SAR China",
                "Award": "3 Stars"
            }
        },
        {
            "type": "Feature",
            "geometry": {
                "type": "Point",
                "coordinates": [
                    114.15867,
                    22.2814635
                ]
            },
            "properties": {
                "Name": "8 1/2 Otto e Mezzo - Bombana",
                "City": "Hong Kong",
                "Country": "Hong Kong SAR China",
                "Award": "3 Stars"
            }
        },
        {
            "type": "Feature",
            "geometry": {
                "type": "Point",
                "coordinates": [
                    113.54341,
                    22.190475
                ]
            },
            "properties": {
                "Name": "The Eight",
                "City": "Macau",
                "Country": "Macau SAR China",
                "Award": "3 Stars"
            }
        },
        {
            "type": "Feature",
            "geometry": {
                "type": "Point",
                "coordinates": [
                    114.15816,
                    22.281199
                ]
            },
            "properties": {
                "Name": "L'Atelier de Jo\u00ebl Robuchon",
                "City": "Hong Kong",
                "Country": "Hong Kong SAR China",
                "Award": "3 Stars"
            }
        },
        {
            "type": "Feature",
            "geometry": {
                "type": "Point",
                "coordinates": [
                    113.56715,
                    22.149137
                ]
            },
            "properties": {
                "Name": "Jade Dragon",
                "City": "Macau",
                "Country": "Macau SAR China",
                "Award": "3 Stars"
            }
        },
        {
            "type": "Feature",
            "geometry": {
                "type": "Point",
                "coordinates": [
                    114.1821991,
                    22.2814401
                ]
            },
            "properties": {
                "Name": "Forum",
                "City": "Hong Kong",
                "Country": "Hong Kong SAR China",
                "Award": "3 Stars"
            }
        },
        {
            "type": "Feature",
            "geometry": {
                "type": "Point",
                "coordinates": [
                    6.0980183,
                    52.5153644
                ]
            },
            "properties": {
                "Name": "De Librije",
                "City": "Zwolle",
                "Country": "Netherlands",
                "Award": "3 Stars"
            }
        },
        {
            "type": "Feature",
            "geometry": {
                "type": "Point",
                "coordinates": [
                    11.5629878,
                    48.1447975
                ]
            },
            "properties": {
                "Name": "JAN",
                "City": "Munich",
                "Country": "Germany",
                "Award": "3 Stars"
            }
        },
        {
            "type": "Feature",
            "geometry": {
                "type": "Point",
                "coordinates": [
                    8.3582803,
                    48.5369113
                ]
            },
            "properties": {
                "Name": "Schwarzwaldstube",
                "City": "Baiersbronn",
                "Country": "Germany",
                "Award": "3 Stars"
            }
        },
        {
            "type": "Feature",
            "geometry": {
                "type": "Point",
                "coordinates": [
                    8.3269876,
                    48.5205845
                ]
            },
            "properties": {
                "Name": "Restaurant Bareiss",
                "City": "Baiersbronn",
                "Country": "Germany",
                "Award": "3 Stars"
            }
        },
        {
            "type": "Feature",
            "geometry": {
                "type": "Point",
                "coordinates": [
                    13.3860867,
                    52.5283507
                ]
            },
            "properties": {
                "Name": "Rutz",
                "City": "Berlin",
                "Country": "Germany",
                "Award": "3 Stars"
            }
        },
        {
            "type": "Feature",
            "geometry": {
                "type": "Point",
                "coordinates": [
                    10.789999,
                    52.4331722
                ]
            },
            "properties": {
                "Name": "Aqua",
                "City": "Wolfsburg",
                "Country": "Germany",
                "Award": "3 Stars"
            }
        },
        {
            "type": "Feature",
            "geometry": {
                "type": "Point",
                "coordinates": [
                    6.8109342,
                    49.9377323
                ]
            },
            "properties": {
                "Name": "Waldhotel Sonnora",
                "City": "Dreis",
                "Country": "Germany",
                "Award": "3 Stars"
            }
        },
        {
            "type": "Feature",
            "geometry": {
                "type": "Point",
                "coordinates": [
                    6.9266002,
                    49.8776003
                ]
            },
            "properties": {
                "Name": "schanz. restaurant.",
                "City": "Piesport",
                "Country": "Germany",
                "Award": "3 Stars"
            }
        },
        {
            "type": "Feature",
            "geometry": {
                "type": "Point",
                "coordinates": [
                    6.3872109,
                    49.5351732
                ]
            },
            "properties": {
                "Name": "Victor's Fine Dining by christian bau",
                "City": "Perl",
                "Country": "Germany",
                "Award": "3 Stars"
            }
        },
        {
            "type": "Feature",
            "geometry": {
                "type": "Point",
                "coordinates": [
                    10.0029635,
                    53.5426688
                ]
            },
            "properties": {
                "Name": "The Table Kevin Fehling",
                "City": "Hamburg",
                "Country": "Germany",
                "Award": "3 Stars"
            }
        },
        {
            "type": "Feature",
            "geometry": {
                "type": "Point",
                "coordinates": [
                    -0.1415369,
                    51.5126775
                ]
            },
            "properties": {
                "Name": "Sketch (The Lecture Room & Library)",
                "City": "London",
                "Country": "United Kingdom",
                "Award": "3 Stars"
            }
        },
        {
            "type": "Feature",
            "geometry": {
                "type": "Point",
                "coordinates": [
                    -2.9538681,
                    54.2017708
                ]
            },
            "properties": {
                "Name": "L'Enclume",
                "City": "Cartmel",
                "Country": "United Kingdom",
                "Award": "3 Stars"
            }
        },
        {
            "type": "Feature",
            "geometry": {
                "type": "Point",
                "coordinates": [
                    -0.152575,
                    51.5073381
                ]
            },
            "properties": {
                "Name": "Alain Ducasse at The Dorchester",
                "City": "London",
                "Country": "United Kingdom",
                "Award": "3 Stars"
            }
        },
        {
            "type": "Feature",
            "geometry": {
                "type": "Point",
                "coordinates": [
                    -0.1492905,
                    51.510188
                ]
            },
            "properties": {
                "Name": "H\u00e9l\u00e8ne Darroze at The Connaught",
                "City": "London",
                "Country": "United Kingdom",
                "Award": "3 Stars"
            }
        },
        {
            "type": "Feature",
            "geometry": {
                "type": "Point",
                "coordinates": [
                    -0.7017529,
                    51.5078582
                ]
            },
            "properties": {
                "Name": "Fat Duck",
                "City": "Bray",
                "Country": "United Kingdom",
                "Award": "3 Stars"
            }
        },
        {
            "type": "Feature",
            "geometry": {
                "type": "Point",
                "coordinates": [
                    -0.2030649,
                    51.5126689
                ]
            },
            "properties": {
                "Name": "CORE by Clare Smyth",
                "City": "London",
                "Country": "United Kingdom",
                "Award": "3 Stars"
            }
        },
        {
            "type": "Feature",
            "geometry": {
                "type": "Point",
                "coordinates": [
                    -0.1621766,
                    51.4854381
                ]
            },
            "properties": {
                "Name": "Restaurant Gordon Ramsay",
                "City": "London",
                "Country": "United Kingdom",
                "Award": "3 Stars"
            }
        },
        {
            "type": "Feature",
            "geometry": {
                "type": "Point",
                "coordinates": [
                    -0.6994376,
                    51.5091092
                ]
            },
            "properties": {
                "Name": "Waterside Inn",
                "City": "Bray",
                "Country": "United Kingdom",
                "Award": "3 Stars"
            }
        },
        {
            "type": "Feature",
            "geometry": {
                "type": "Point",
                "coordinates": [
                    3.1403981,
                    50.9374466
                ]
            },
            "properties": {
                "Name": "Boury",
                "City": "Roeselare",
                "Country": "Belgium",
                "Award": "3 Stars"
            }
        },
        {
            "type": "Feature",
            "geometry": {
                "type": "Point",
                "coordinates": [
                    4.4047543,
                    51.228828
                ]
            },
            "properties": {
                "Name": "Zilte",
                "City": "Antwerpen",
                "Country": "Belgium",
                "Award": "3 Stars"
            }
        },
        {
            "type": "Feature",
            "geometry": {
                "type": "Point",
                "coordinates": [
                    6.6261535,
                    43.2665849
                ]
            },
            "properties": {
                "Name": "La Vague d'Or - Cheval Blanc St-Tropez",
                "City": "Saint-Tropez",
                "Country": "France",
                "Award": "3 Stars"
            }
        },
        {
            "type": "Feature",
            "geometry": {
                "type": "Point",
                "coordinates": [
                    6.5133065,
                    45.3690463
                ]
            },
            "properties": {
                "Name": "Ren\u00e9 et Maxime Meilleur",
                "City": "Saint-Martin-de-Belleville",
                "Country": "France",
                "Award": "3 Stars"
            }
        },
        {
            "type": "Feature",
            "geometry": {
                "type": "Point",
                "coordinates": [
                    2.3422847,
                    48.8643947
                ]
            },
            "properties": {
                "Name": "Kei",
                "City": "Paris",
                "Country": "France",
                "Award": "3 Stars"
            }
        },
        {
            "type": "Feature",
            "geometry": {
                "type": "Point",
                "coordinates": [
                    2.7893292,
                    43.0481728
                ]
            },
            "properties": {
                "Name": "Auberge du Vieux Puits",
                "City": "Fontjoncouse",
                "Country": "France",
                "Award": "3 Stars"
            }
        },
        {
            "type": "Feature",
            "geometry": {
                "type": "Point",
                "coordinates": [
                    4.4342679,
                    45.1386734
                ]
            },
            "properties": {
                "Name": "Restaurant Marcon",
                "City": "Saint-Bonnet-le-Froid",
                "Country": "France",
                "Award": "3 Stars"
            }
        },
        {
            "type": "Feature",
            "geometry": {
                "type": "Point",
                "coordinates": [
                    4.0032666,
                    49.2478347
                ]
            },
            "properties": {
                "Name": "Assiette Champenoise",
                "City": "Reims",
                "Country": "France",
                "Award": "3 Stars"
            }
        },
        {
            "type": "Feature",
            "geometry": {
                "type": "Point",
                "coordinates": [
                    3.99236,
                    46.01033
                ]
            },
            "properties": {
                "Name": "Troisgros - Le Bois sans Feuilles",
                "City": "Ouches",
                "Country": "France",
                "Award": "3 Stars"
            }
        },
        {
            "type": "Feature",
            "geometry": {
                "type": "Point",
                "coordinates": [
                    6.1445765,
                    45.9176317
                ]
            },
            "properties": {
                "Name": "Le Clos des Sens",
                "City": "Annecy",
                "Country": "France",
                "Award": "3 Stars"
            }
        },
        {
            "type": "Feature",
            "geometry": {
                "type": "Point",
                "coordinates": [
                    -2.2999341,
                    47.0237104
                ]
            },
            "properties": {
                "Name": "La Marine",
                "City": "L'Herbaudi\u00e8re",
                "Country": "France",
                "Award": "3 Stars"
            }
        },
        {
            "type": "Feature",
            "geometry": {
                "type": "Point",
                "coordinates": [
                    5.544944,
                    43.2110889
                ]
            },
            "properties": {
                "Name": "La Villa Madie",
                "City": "Cassis",
                "Country": "France",
                "Award": "3 Stars"
            }
        },
        {
            "type": "Feature",
            "geometry": {
                "type": "Point",
                "coordinates": [
                    -0.3797229,
                    43.696604
                ]
            },
            "properties": {
                "Name": "Les Pr\u00e9s d'Eug\u00e9nie - Michel Gu\u00e9rard",
                "City": "Eug\u00e9nie-les-Bains",
                "Country": "France",
                "Award": "3 Stars"
            }
        },
        {
            "type": "Feature",
            "geometry": {
                "type": "Point",
                "coordinates": [
                    2.2507182,
                    48.8639374
                ]
            },
            "properties": {
                "Name": "Le Pr\u00e9 Catelan",
                "City": "Paris",
                "Country": "France",
                "Award": "3 Stars"
            }
        },
        {
            "type": "Feature",
            "geometry": {
                "type": "Point",
                "coordinates": [
                    6.6338696,
                    45.4094877
                ]
            },
            "properties": {
                "Name": "Le 1947 \u00e0 Cheval Blanc",
                "City": "Courchevel",
                "Country": "France",
                "Award": "3 Stars"
            }
        },
        {
            "type": "Feature",
            "geometry": {
                "type": "Point",
                "coordinates": [
                    2.3145978,
                    48.8717223
                ]
            },
            "properties": {
                "Name": "\u00c9picure",
                "City": "Paris",
                "Country": "France",
                "Award": "3 Stars"
            }
        },
        {
            "type": "Feature",
            "geometry": {
                "type": "Point",
                "coordinates": [
                    2.3170127,
                    48.8557538
                ]
            },
            "properties": {
                "Name": "Arp\u00e8ge",
                "City": "Paris",
                "Country": "France",
                "Award": "3 Stars"
            }
        },
        {
            "type": "Feature",
            "geometry": {
                "type": "Point",
                "coordinates": [
                    2.3645215,
                    48.855494
                ]
            },
            "properties": {
                "Name": "L'Ambroisie",
                "City": "Paris",
                "Country": "France",
                "Award": "3 Stars"
            }
        },
        {
            "type": "Feature",
            "geometry": {
                "type": "Point",
                "coordinates": [
                    7.4271047,
                    43.7391839
                ]
            },
            "properties": {
                "Name": "Le Louis XV - Alain Ducasse \u00e0 l'H\u00f4tel de Paris",
                "City": "Monaco",
                "Country": "France",
                "Award": "3 Stars"
            }
        },
        {
            "type": "Feature",
            "geometry": {
                "type": "Point",
                "coordinates": [
                    4.7529917,
                    46.9078385
                ]
            },
            "properties": {
                "Name": "Maison Lameloise",
                "City": "Chagny",
                "Country": "France",
                "Award": "3 Stars"
            }
        },
        {
            "type": "Feature",
            "geometry": {
                "type": "Point",
                "coordinates": [
                    2.3008612,
                    48.8687604
                ]
            },
            "properties": {
                "Name": "Le Cinq",
                "City": "Paris",
                "Country": "France",
                "Award": "3 Stars"
            }
        },
        {
            "type": "Feature",
            "geometry": {
                "type": "Point",
                "coordinates": [
                    4.7873628,
                    43.7402659
                ]
            },
            "properties": {
                "Name": "L'Oustau de Baumani\u00e8re",
                "City": "Les Baux-de-Provence",
                "Country": "France",
                "Award": "3 Stars"
            }
        },
        {
            "type": "Feature",
            "geometry": {
                "type": "Point",
                "coordinates": [
                    4.8854965,
                    44.9177848
                ]
            },
            "properties": {
                "Name": "Pic",
                "City": "Valence",
                "Country": "France",
                "Award": "3 Stars"
            }
        },
        {
            "type": "Feature",
            "geometry": {
                "type": "Point",
                "coordinates": [
                    2.3421588,
                    48.8588148
                ]
            },
            "properties": {
                "Name": "Pl\u00e9nitude - Cheval Blanc Paris",
                "City": "Paris",
                "Country": "France",
                "Award": "3 Stars"
            }
        },
        {
            "type": "Feature",
            "geometry": {
                "type": "Point",
                "coordinates": [
                    2.3003862,
                    48.8732506
                ]
            },
            "properties": {
                "Name": "Pierre Gagnaire",
                "City": "Paris",
                "Country": "France",
                "Award": "3 Stars"
            }
        },
        {
            "type": "Feature",
            "geometry": {
                "type": "Point",
                "coordinates": [
                    6.5969625,
                    45.8302404
                ]
            },
            "properties": {
                "Name": "Flocons de Sel",
                "City": "Meg\u00e8ve",
                "Country": "France",
                "Award": "3 Stars"
            }
        },
        {
            "type": "Feature",
            "geometry": {
                "type": "Point",
                "coordinates": [
                    2.3164993,
                    48.8660932
                ]
            },
            "properties": {
                "Name": "All\u00e9no Paris au Pavillon Ledoyen",
                "City": "Paris",
                "Country": "France",
                "Award": "3 Stars"
            }
        },
        {
            "type": "Feature",
            "geometry": {
                "type": "Point",
                "coordinates": [
                    5.3521929,
                    43.2803346
                ]
            },
            "properties": {
                "Name": "Le Petit Nice",
                "City": "Marseille",
                "Country": "France",
                "Award": "3 Stars"
            }
        },
        {
            "type": "Feature",
            "geometry": {
                "type": "Point",
                "coordinates": [
                    5.3862325,
                    43.2701104
                ]
            },
            "properties": {
                "Name": "AM par Alexandre Mazzia",
                "City": "Marseille",
                "Country": "France",
                "Award": "3 Stars"
            }
        },
        {
            "type": "Feature",
            "geometry": {
                "type": "Point",
                "coordinates": [
                    7.5280514,
                    43.7859304
                ]
            },
            "properties": {
                "Name": "Mirazur",
                "City": "Menton",
                "Country": "France",
                "Award": "3 Stars"
            }
        },
        {
            "type": "Feature",
            "geometry": {
                "type": "Point",
                "coordinates": [
                    4.9894987,
                    46.2201083
                ]
            },
            "properties": {
                "Name": "Georges Blanc",
                "City": "Vonnas",
                "Country": "France",
                "Award": "3 Stars"
            }
        },
        {
            "type": "Feature",
            "geometry": {
                "type": "Point",
                "coordinates": [
                    16.3586534,
                    48.2539745
                ]
            },
            "properties": {
                "Name": "Amador",
                "City": "Vienna",
                "Country": "Austria",
                "Award": "3 Stars"
            }
        },
        {
            "type": "Feature",
            "geometry": {
                "type": "Point",
                "coordinates": [
                    126.99935,
                    37.53644
                ]
            },
            "properties": {
                "Name": "Mosu",
                "City": "Seoul",
                "Country": "South Korea",
                "Award": "3 Stars"
            }
        },
        {
            "type": "Feature",
            "geometry": {
                "type": "Point",
                "coordinates": [
                    135.501289,
                    34.770287
                ]
            },
            "properties": {
                "Name": "Kashiwaya Osaka Senriyama",
                "City": "Osaka",
                "Country": "Japan",
                "Award": "3 Stars"
            }
        },
        {
            "type": "Feature",
            "geometry": {
                "type": "Point",
                "coordinates": [
                    135.765083,
                    35.010397
                ]
            },
            "properties": {
                "Name": "Isshisoden Nakamura",
                "City": "Kyoto",
                "Country": "Japan",
                "Award": "3 Stars"
            }
        },
        {
            "type": "Feature",
            "geometry": {
                "type": "Point",
                "coordinates": [
                    135.782364,
                    35.002993
                ]
            },
            "properties": {
                "Name": "Mizai",
                "City": "Kyoto",
                "Country": "Japan",
                "Award": "3 Stars"
            }
        },
        {
            "type": "Feature",
            "geometry": {
                "type": "Point",
                "coordinates": [
                    135.786742,
                    35.011355
                ]
            },
            "properties": {
                "Name": "Hyotei",
                "City": "Kyoto",
                "Country": "Japan",
                "Award": "3 Stars"
            }
        },
        {
            "type": "Feature",
            "geometry": {
                "type": "Point",
                "coordinates": [
                    135.774161,
                    35.001599
                ]
            },
            "properties": {
                "Name": "Maeda",
                "City": "Kyoto",
                "Country": "Japan",
                "Award": "3 Stars"
            }
        },
        {
            "type": "Feature",
            "geometry": {
                "type": "Point",
                "coordinates": [
                    135.775049,
                    34.998881
                ]
            },
            "properties": {
                "Name": "Gion Sasaki",
                "City": "Kyoto",
                "Country": "Japan",
                "Award": "3 Stars"
            }
        },
        {
            "type": "Feature",
            "geometry": {
                "type": "Point",
                "coordinates": [
                    135.496084,
                    34.688612
                ]
            },
            "properties": {
                "Name": "HAJIME",
                "City": "Osaka",
                "Country": "Japan",
                "Award": "3 Stars"
            }
        },
        {
            "type": "Feature",
            "geometry": {
                "type": "Point",
                "coordinates": [
                    135.507205,
                    34.673353
                ]
            },
            "properties": {
                "Name": "Taian",
                "City": "Osaka",
                "Country": "Japan",
                "Award": "3 Stars"
            }
        },
        {
            "type": "Feature",
            "geometry": {
                "type": "Point",
                "coordinates": [
                    135.782079,
                    35.001535
                ]
            },
            "properties": {
                "Name": "Kikunoi Honten",
                "City": "Kyoto",
                "Country": "Japan",
                "Award": "3 Stars"
            }
        },
        {
            "type": "Feature",
            "geometry": {
                "type": "Point",
                "coordinates": [
                    100.60551,
                    13.75155
                ]
            },
            "properties": {
                "Name": "Baan Tepa",
                "City": "Bangkok",
                "Country": "Thailand",
                "Award": "2 Stars"
            }
        },
        {
            "type": "Feature",
            "geometry": {
                "type": "Point",
                "coordinates": [
                    100.5171696,
                    13.7215006
                ]
            },
            "properties": {
                "Name": "Chef's Table",
                "City": "Bangkok",
                "Country": "Thailand",
                "Award": "2 Stars"
            }
        },
        {
            "type": "Feature",
            "geometry": {
                "type": "Point",
                "coordinates": [
                    100.5457264,
                    13.7108084
                ]
            },
            "properties": {
                "Name": "S\u00fchring",
                "City": "Bangkok",
                "Country": "Thailand",
                "Award": "2 Stars"
            }
        },
        {
            "type": "Feature",
            "geometry": {
                "type": "Point",
                "coordinates": [
                    100.56989,
                    13.72654
                ]
            },
            "properties": {
                "Name": "Sorn",
                "City": "Bangkok",
                "Country": "Thailand",
                "Award": "2 Stars"
            }
        },
        {
            "type": "Feature",
            "geometry": {
                "type": "Point",
                "coordinates": [
                    100.57828,
                    13.72725
                ]
            },
            "properties": {
                "Name": "Gaa",
                "City": "Bangkok",
                "Country": "Thailand",
                "Award": "2 Stars"
            }
        },
        {
            "type": "Feature",
            "geometry": {
                "type": "Point",
                "coordinates": [
                    100.51691,
                    13.722148
                ]
            },
            "properties": {
                "Name": "Mezzaluna",
                "City": "Bangkok",
                "Country": "Thailand",
                "Award": "2 Stars"
            }
        },
        {
            "type": "Feature",
            "geometry": {
                "type": "Point",
                "coordinates": [
                    100.57972,
                    13.731805
                ]
            },
            "properties": {
                "Name": "R-Haan",
                "City": "Bangkok",
                "Country": "Thailand",
                "Award": "2 Stars"
            }
        },
        {
            "type": "Feature",
            "geometry": {
                "type": "Point",
                "coordinates": [
                    139.723162,
                    35.637444
                ]
            },
            "properties": {
                "Name": "Tempura Ginya",
                "City": "Tokyo",
                "Country": "Japan",
                "Award": "2 Stars"
            }
        },
        {
            "type": "Feature",
            "geometry": {
                "type": "Point",
                "coordinates": [
                    139.743334,
                    35.655769
                ]
            },
            "properties": {
                "Name": "Crony",
                "City": "Tokyo",
                "Country": "Japan",
                "Award": "2 Stars"
            }
        },
        {
            "type": "Feature",
            "geometry": {
                "type": "Point",
                "coordinates": [
                    139.763347,
                    35.671688
                ]
            },
            "properties": {
                "Name": "ESqUISSE",
                "City": "Tokyo",
                "Country": "Japan",
                "Award": "2 Stars"
            }
        },
        {
            "type": "Feature",
            "geometry": {
                "type": "Point",
                "coordinates": [
                    139.724008,
                    35.64751
                ]
            },
            "properties": {
                "Name": "Seisoka",
                "City": "Tokyo",
                "Country": "Japan",
                "Award": "2 Stars"
            }
        },
        {
            "type": "Feature",
            "geometry": {
                "type": "Point",
                "coordinates": [
                    139.735892,
                    35.680327
                ]
            },
            "properties": {
                "Name": "Kioicho Fukudaya",
                "City": "Tokyo",
                "Country": "Japan",
                "Award": "2 Stars"
            }
        },
        {
            "type": "Feature",
            "geometry": {
                "type": "Point",
                "coordinates": [
                    139.761573,
                    35.668529
                ]
            },
            "properties": {
                "Name": "Ginza Fukuju",
                "City": "Tokyo",
                "Country": "Japan",
                "Award": "2 Stars"
            }
        },
        {
            "type": "Feature",
            "geometry": {
                "type": "Point",
                "coordinates": [
                    139.743562,
                    35.661598
                ]
            },
            "properties": {
                "Name": "Floril\u00e8ge",
                "City": "Tokyo",
                "Country": "Japan",
                "Award": "2 Stars"
            }
        },
        {
            "type": "Feature",
            "geometry": {
                "type": "Point",
                "coordinates": [
                    139.763064,
                    35.671411
                ]
            },
            "properties": {
                "Name": "Ginza Kojyu",
                "City": "Tokyo",
                "Country": "Japan",
                "Award": "2 Stars"
            }
        },
        {
            "type": "Feature",
            "geometry": {
                "type": "Point",
                "coordinates": [
                    139.712697,
                    35.67321
                ]
            },
            "properties": {
                "Name": "Den",
                "City": "Tokyo",
                "Country": "Japan",
                "Award": "2 Stars"
            }
        },
        {
            "type": "Feature",
            "geometry": {
                "type": "Point",
                "coordinates": [
                    139.729049,
                    35.658713
                ]
            },
            "properties": {
                "Name": "Sukiyabashi Jiro Roppongiten",
                "City": "Tokyo",
                "Country": "Japan",
                "Award": "2 Stars"
            }
        },
        {
            "type": "Feature",
            "geometry": {
                "type": "Point",
                "coordinates": [
                    139.767155,
                    35.678083
                ]
            },
            "properties": {
                "Name": "S\u00c9ZANNE",
                "City": "Tokyo",
                "Country": "Japan",
                "Award": "2 Stars"
            }
        },
        {
            "type": "Feature",
            "geometry": {
                "type": "Point",
                "coordinates": [
                    139.716582,
                    35.661579
                ]
            },
            "properties": {
                "Name": "PRISMA",
                "City": "Tokyo",
                "Country": "Japan",
                "Award": "2 Stars"
            }
        },
        {
            "type": "Feature",
            "geometry": {
                "type": "Point",
                "coordinates": [
                    139.741089,
                    35.668231
                ]
            },
            "properties": {
                "Name": "PIERRE GAGNAIRE",
                "City": "Tokyo",
                "Country": "Japan",
                "Award": "2 Stars"
            }
        },
        {
            "type": "Feature",
            "geometry": {
                "type": "Point",
                "coordinates": [
                    139.737003,
                    35.679726
                ]
            },
            "properties": {
                "Name": "MAZ",
                "City": "Tokyo",
                "Country": "Japan",
                "Award": "2 Stars"
            }
        },
        {
            "type": "Feature",
            "geometry": {
                "type": "Point",
                "coordinates": [
                    139.726652,
                    35.659411
                ]
            },
            "properties": {
                "Name": "Myojaku",
                "City": "Tokyo",
                "Country": "Japan",
                "Award": "2 Stars"
            }
        },
        {
            "type": "Feature",
            "geometry": {
                "type": "Point",
                "coordinates": [
                    139.79699,
                    35.718485
                ]
            },
            "properties": {
                "Name": "HOMMAGE",
                "City": "Tokyo",
                "Country": "Japan",
                "Award": "2 Stars"
            }
        },
        {
            "type": "Feature",
            "geometry": {
                "type": "Point",
                "coordinates": [
                    139.714544,
                    35.641907
                ]
            },
            "properties": {
                "Name": "LA TABLE de Jo\u00ebl Robuchon",
                "City": "Tokyo",
                "Country": "Japan",
                "Award": "2 Stars"
            }
        },
        {
            "type": "Feature",
            "geometry": {
                "type": "Point",
                "coordinates": [
                    139.795384,
                    35.706847
                ]
            },
            "properties": {
                "Name": "Nabeno-Ism",
                "City": "Tokyo",
                "Country": "Japan",
                "Award": "2 Stars"
            }
        },
        {
            "type": "Feature",
            "geometry": {
                "type": "Point",
                "coordinates": [
                    139.739938,
                    35.647433
                ]
            },
            "properties": {
                "Name": "Seizan",
                "City": "Tokyo",
                "Country": "Japan",
                "Award": "2 Stars"
            }
        },
        {
            "type": "Feature",
            "geometry": {
                "type": "Point",
                "coordinates": [
                    139.763104,
                    35.671184
                ]
            },
            "properties": {
                "Name": "Tempura Kondo",
                "City": "Tokyo",
                "Country": "Japan",
                "Award": "2 Stars"
            }
        },
        {
            "type": "Feature",
            "geometry": {
                "type": "Point",
                "coordinates": [
                    139.766511,
                    35.67308
                ]
            },
            "properties": {
                "Name": "BEIGE Alain Ducasse",
                "City": "Tokyo",
                "Country": "Japan",
                "Award": "2 Stars"
            }
        },
        {
            "type": "Feature",
            "geometry": {
                "type": "Point",
                "coordinates": [
                    139.779323,
                    35.68274
                ]
            },
            "properties": {
                "Name": "ASAHINA Gastronome",
                "City": "Tokyo",
                "Country": "Japan",
                "Award": "2 Stars"
            }
        },
        {
            "type": "Feature",
            "geometry": {
                "type": "Point",
                "coordinates": [
                    139.768149,
                    35.670064
                ]
            },
            "properties": {
                "Name": "Kobikicho Tomoki",
                "City": "Tokyo",
                "Country": "Japan",
                "Award": "2 Stars"
            }
        },
        {
            "type": "Feature",
            "geometry": {
                "type": "Point",
                "coordinates": [
                    139.710124,
                    35.673471
                ]
            },
            "properties": {
                "Name": "Jingumae Higuchi",
                "City": "Tokyo",
                "Country": "Japan",
                "Award": "2 Stars"
            }
        },
        {
            "type": "Feature",
            "geometry": {
                "type": "Point",
                "coordinates": [
                    139.7227,
                    35.65825
                ]
            },
            "properties": {
                "Name": "Usukifugu Yamadaya",
                "City": "Tokyo",
                "Country": "Japan",
                "Award": "2 Stars"
            }
        },
        {
            "type": "Feature",
            "geometry": {
                "type": "Point",
                "coordinates": [
                    139.762822,
                    35.670064
                ]
            },
            "properties": {
                "Name": "ZURRIOLA",
                "City": "Tokyo",
                "Country": "Japan",
                "Award": "2 Stars"
            }
        },
        {
            "type": "Feature",
            "geometry": {
                "type": "Point",
                "coordinates": [
                    139.733371,
                    35.664729
                ]
            },
            "properties": {
                "Name": "Ryuzu",
                "City": "Tokyo",
                "Country": "Japan",
                "Award": "2 Stars"
            }
        },
        {
            "type": "Feature",
            "geometry": {
                "type": "Point",
                "coordinates": [
                    139.722147,
                    35.671585
                ]
            },
            "properties": {
                "Name": "NARISAWA",
                "City": "Tokyo",
                "Country": "Japan",
                "Award": "2 Stars"
            }
        },
        {
            "type": "Feature",
            "geometry": {
                "type": "Point",
                "coordinates": [
                    139.761942,
                    35.668923
                ]
            },
            "properties": {
                "Name": "Sushi Yoshitake",
                "City": "Tokyo",
                "Country": "Japan",
                "Award": "2 Stars"
            }
        },
        {
            "type": "Feature",
            "geometry": {
                "type": "Point",
                "coordinates": [
                    139.767805,
                    35.673039
                ]
            },
            "properties": {
                "Name": "Ginza Shinohara",
                "City": "Tokyo",
                "Country": "Japan",
                "Award": "2 Stars"
            }
        },
        {
            "type": "Feature",
            "geometry": {
                "type": "Point",
                "coordinates": [
                    139.762691,
                    35.667938
                ]
            },
            "properties": {
                "Name": "Sushi Kanesaka",
                "City": "Tokyo",
                "Country": "Japan",
                "Award": "2 Stars"
            }
        },
        {
            "type": "Feature",
            "geometry": {
                "type": "Point",
                "coordinates": [
                    139.774073,
                    35.671572
                ]
            },
            "properties": {
                "Name": "Kutan",
                "City": "Tokyo",
                "Country": "Japan",
                "Award": "2 Stars"
            }
        },
        {
            "type": "Feature",
            "geometry": {
                "type": "Point",
                "coordinates": [
                    139.734126,
                    35.669635
                ]
            },
            "properties": {
                "Name": "Akasaka Kikunoi",
                "City": "Tokyo",
                "Country": "Japan",
                "Award": "2 Stars"
            }
        },
        {
            "type": "Feature",
            "geometry": {
                "type": "Point",
                "coordinates": [
                    -5.16655,
                    36.74161
                ]
            },
            "properties": {
                "Name": "Bardal",
                "City": "Ronda",
                "Country": "Spain",
                "Award": "2 Stars"
            }
        },
        {
            "type": "Feature",
            "geometry": {
                "type": "Point",
                "coordinates": [
                    -1.9859469,
                    43.3168594
                ]
            },
            "properties": {
                "Name": "Amelia by Paulo Airaudo",
                "City": "Donostia / San Sebasti\u00e1n",
                "Country": "Spain",
                "Award": "2 Stars"
            }
        },
        {
            "type": "Feature",
            "geometry": {
                "type": "Point",
                "coordinates": [
                    -16.7535126,
                    28.1018325
                ]
            },
            "properties": {
                "Name": "El Rinc\u00f3n de Juan Carlos",
                "City": "Adeje",
                "Country": "Spain",
                "Award": "2 Stars"
            }
        },
        {
            "type": "Feature",
            "geometry": {
                "type": "Point",
                "coordinates": [
                    -0.3745175,
                    39.469784
                ]
            },
            "properties": {
                "Name": "El Poblet",
                "City": "Valencia",
                "Country": "Spain",
                "Award": "2 Stars"
            }
        },
        {
            "type": "Feature",
            "geometry": {
                "type": "Point",
                "coordinates": [
                    -1.533913,
                    42.909132
                ]
            },
            "properties": {
                "Name": "El Molino de Urd\u00e1niz",
                "City": "Urdaitz",
                "Country": "Spain",
                "Award": "2 Stars"
            }
        },
        {
            "type": "Feature",
            "geometry": {
                "type": "Point",
                "coordinates": [
                    -3.6861735,
                    40.4284323
                ]
            },
            "properties": {
                "Name": "Ram\u00f3n Freixa Madrid",
                "City": "Madrid",
                "Country": "Spain",
                "Award": "2 Stars"
            }
        },
        {
            "type": "Feature",
            "geometry": {
                "type": "Point",
                "coordinates": [
                    -3.691358,
                    40.4385556
                ]
            },
            "properties": {
                "Name": "Smoked Room",
                "City": "Madrid",
                "Country": "Spain",
                "Award": "2 Stars"
            }
        },
        {
            "type": "Feature",
            "geometry": {
                "type": "Point",
                "coordinates": [
                    -8.8957637,
                    42.4752854
                ]
            },
            "properties": {
                "Name": "Culler de Pau",
                "City": "O Grove",
                "Country": "Spain",
                "Award": "2 Stars"
            }
        },
        {
            "type": "Feature",
            "geometry": {
                "type": "Point",
                "coordinates": [
                    -1.163767,
                    37.92464
                ]
            },
            "properties": {
                "Name": "Caba\u00f1a Buenavista",
                "City": "El Palmar",
                "Country": "Spain",
                "Award": "2 Stars"
            }
        },
        {
            "type": "Feature",
            "geometry": {
                "type": "Point",
                "coordinates": [
                    2.5009,
                    42.1946503
                ]
            },
            "properties": {
                "Name": "Les Cols",
                "City": "Olot",
                "Country": "Spain",
                "Award": "2 Stars"
            }
        },
        {
            "type": "Feature",
            "geometry": {
                "type": "Point",
                "coordinates": [
                    -3.7002477,
                    40.4176733
                ]
            },
            "properties": {
                "Name": "Paco Roncero",
                "City": "Madrid",
                "Country": "Spain",
                "Award": "2 Stars"
            }
        },
        {
            "type": "Feature",
            "geometry": {
                "type": "Point",
                "coordinates": [
                    3.1601265,
                    42.3710822
                ]
            },
            "properties": {
                "Name": "Miramar",
                "City": "Llan\u00e7\u00e0",
                "Country": "Spain",
                "Award": "2 Stars"
            }
        },
        {
            "type": "Feature",
            "geometry": {
                "type": "Point",
                "coordinates": [
                    -0.3852003,
                    39.48512
                ]
            },
            "properties": {
                "Name": "Ricard Camarena",
                "City": "Valencia",
                "Country": "Spain",
                "Award": "2 Stars"
            }
        },
        {
            "type": "Feature",
            "geometry": {
                "type": "Point",
                "coordinates": [
                    -4.8857086,
                    36.5114458
                ]
            },
            "properties": {
                "Name": "Skina",
                "City": "Marbella",
                "Country": "Spain",
                "Award": "2 Stars"
            }
        },
        {
            "type": "Feature",
            "geometry": {
                "type": "Point",
                "coordinates": [
                    -3.6962925,
                    40.4246847
                ]
            },
            "properties": {
                "Name": "DSTAgE",
                "City": "Madrid",
                "Country": "Spain",
                "Award": "2 Stars"
            }
        },
        {
            "type": "Feature",
            "geometry": {
                "type": "Point",
                "coordinates": [
                    -3.690676,
                    40.430643
                ]
            },
            "properties": {
                "Name": "Coque",
                "City": "Madrid",
                "Country": "Spain",
                "Award": "2 Stars"
            }
        },
        {
            "type": "Feature",
            "geometry": {
                "type": "Point",
                "coordinates": [
                    0.148496,
                    38.7701412
                ]
            },
            "properties": {
                "Name": "BonAmb",
                "City": "X\u00e0bia",
                "Country": "Spain",
                "Award": "2 Stars"
            }
        },
        {
            "type": "Feature",
            "geometry": {
                "type": "Point",
                "coordinates": [
                    -3.6928119,
                    40.4158561
                ]
            },
            "properties": {
                "Name": "Deessa",
                "City": "Madrid",
                "Country": "Spain",
                "Award": "2 Stars"
            }
        },
        {
            "type": "Feature",
            "geometry": {
                "type": "Point",
                "coordinates": [
                    -16.799017,
                    28.171041
                ]
            },
            "properties": {
                "Name": "M.B",
                "City": "Gu\u00eda de Isora",
                "Country": "Spain",
                "Award": "2 Stars"
            }
        },
        {
            "type": "Feature",
            "geometry": {
                "type": "Point",
                "coordinates": [
                    -8.75447,
                    42.40942
                ]
            },
            "properties": {
                "Name": "Pepe Vieira",
                "City": "Rax\u00f3",
                "Country": "Spain",
                "Award": "2 Stars"
            }
        },
        {
            "type": "Feature",
            "geometry": {
                "type": "Point",
                "coordinates": [
                    3.4395565,
                    39.6690394
                ]
            },
            "properties": {
                "Name": "Voro",
                "City": "Canyamel",
                "Country": "Spain",
                "Award": "2 Stars"
            }
        },
        {
            "type": "Feature",
            "geometry": {
                "type": "Point",
                "coordinates": [
                    2.1969283,
                    41.3867832
                ]
            },
            "properties": {
                "Name": "Enoteca Paco P\u00e9rez",
                "City": "Barcelona",
                "Country": "Spain",
                "Award": "2 Stars"
            }
        },
        {
            "type": "Feature",
            "geometry": {
                "type": "Point",
                "coordinates": [
                    -1.0910555,
                    38.8696375
                ]
            },
            "properties": {
                "Name": "Maralba",
                "City": "Almansa",
                "Country": "Spain",
                "Award": "2 Stars"
            }
        },
        {
            "type": "Feature",
            "geometry": {
                "type": "Point",
                "coordinates": [
                    -3.0144146,
                    42.3257846
                ]
            },
            "properties": {
                "Name": "El Portal de Echaurren",
                "City": "Ezcaray",
                "Country": "Spain",
                "Award": "2 Stars"
            }
        },
        {
            "type": "Feature",
            "geometry": {
                "type": "Point",
                "coordinates": [
                    -5.1931556,
                    43.4184082
                ]
            },
            "properties": {
                "Name": "Casa Marcial",
                "City": "Arriondas",
                "Country": "Spain",
                "Award": "2 Stars"
            }
        },
        {
            "type": "Feature",
            "geometry": {
                "type": "Point",
                "coordinates": [
                    2.1521767,
                    41.3784999
                ]
            },
            "properties": {
                "Name": "Cinc Sentits",
                "City": "Barcelona",
                "Country": "Spain",
                "Award": "2 Stars"
            }
        },
        {
            "type": "Feature",
            "geometry": {
                "type": "Point",
                "coordinates": [
                    -1.9171152,
                    43.2722067
                ]
            },
            "properties": {
                "Name": "Mugaritz",
                "City": "Errenteria",
                "Country": "Spain",
                "Award": "2 Stars"
            }
        },
        {
            "type": "Feature",
            "geometry": {
                "type": "Point",
                "coordinates": [
                    -4.0462052,
                    39.8619154
                ]
            },
            "properties": {
                "Name": "Iv\u00e1n Cerde\u00f1o",
                "City": "Toledo",
                "Country": "Spain",
                "Award": "2 Stars"
            }
        },
        {
            "type": "Feature",
            "geometry": {
                "type": "Point",
                "coordinates": [
                    2.1664829,
                    41.3911693
                ]
            },
            "properties": {
                "Name": "Moments",
                "City": "Barcelona",
                "Country": "Spain",
                "Award": "2 Stars"
            }
        },
        {
            "type": "Feature",
            "geometry": {
                "type": "Point",
                "coordinates": [
                    -2.5805894,
                    42.3715602
                ]
            },
            "properties": {
                "Name": "Venta Moncalvillo",
                "City": "Daroca de Rioja",
                "Country": "Spain",
                "Award": "2 Stars"
            }
        },
        {
            "type": "Feature",
            "geometry": {
                "type": "Point",
                "coordinates": [
                    -0.4451945,
                    38.7570756
                ]
            },
            "properties": {
                "Name": "L'Escaleta",
                "City": "Cocentaina",
                "Country": "Spain",
                "Award": "2 Stars"
            }
        },
        {
            "type": "Feature",
            "geometry": {
                "type": "Point",
                "coordinates": [
                    3.0160537,
                    41.9877609
                ]
            },
            "properties": {
                "Name": "Bo.TiC",
                "City": "Cor\u00e7\u00e0",
                "Country": "Spain",
                "Award": "2 Stars"
            }
        },
        {
            "type": "Feature",
            "geometry": {
                "type": "Point",
                "coordinates": [
                    -58.3891732,
                    -34.5916443
                ]
            },
            "properties": {
                "Name": "Aramburu",
                "City": "Buenos Aires",
                "Country": "Argentina",
                "Award": "2 Stars"
            }
        },
        {
            "type": "Feature",
            "geometry": {
                "type": "Point",
                "coordinates": [
                    101.71668,
                    3.15399
                ]
            },
            "properties": {
                "Name": "Dewakan",
                "City": "Kuala Lumpur",
                "Country": "Malaysia",
                "Award": "2 Stars"
            }
        },
        {
            "type": "Feature",
            "geometry": {
                "type": "Point",
                "coordinates": [
                    121.448654,
                    31.206108
                ]
            },
            "properties": {
                "Name": "Ji Pin Court",
                "City": "Shanghai",
                "Country": "China Mainland",
                "Award": "2 Stars"
            }
        },
        {
            "type": "Feature",
            "geometry": {
                "type": "Point",
                "coordinates": [
                    121.45071,
                    31.22789
                ]
            },
            "properties": {
                "Name": "The House of Rong",
                "City": "Shanghai",
                "Country": "China Mainland",
                "Award": "2 Stars"
            }
        },
        {
            "type": "Feature",
            "geometry": {
                "type": "Point",
                "coordinates": [
                    121.492954,
                    31.229464
                ]
            },
            "properties": {
                "Name": "Da Vittorio",
                "City": "Shanghai",
                "Country": "China Mainland",
                "Award": "2 Stars"
            }
        },
        {
            "type": "Feature",
            "geometry": {
                "type": "Point",
                "coordinates": [
                    121.482315,
                    31.242798
                ]
            },
            "properties": {
                "Name": "Bao Li Xuan",
                "City": "Shanghai",
                "Country": "China Mainland",
                "Award": "2 Stars"
            }
        },
        {
            "type": "Feature",
            "geometry": {
                "type": "Point",
                "coordinates": [
                    121.48346,
                    31.244394
                ]
            },
            "properties": {
                "Name": "8 \u00bd Otto e Mezzo Bombana",
                "City": "Shanghai",
                "Country": "China Mainland",
                "Award": "2 Stars"
            }
        },
        {
            "type": "Feature",
            "geometry": {
                "type": "Point",
                "coordinates": [
                    121.4854918,
                    31.2423721
                ]
            },
            "properties": {
                "Name": "102 House",
                "City": "Shanghai",
                "Country": "China Mainland",
                "Award": "2 Stars"
            }
        },
        {
            "type": "Feature",
            "geometry": {
                "type": "Point",
                "coordinates": [
                    121.464502,
                    31.22318
                ]
            },
            "properties": {
                "Name": "Imperial Treasure Fine Chinese Cuisine (Huangpu)",
                "City": "Shanghai",
                "Country": "China Mainland",
                "Award": "2 Stars"
            }
        },
        {
            "type": "Feature",
            "geometry": {
                "type": "Point",
                "coordinates": [
                    121.47799,
                    31.204708
                ]
            },
            "properties": {
                "Name": "Canton 8 (Runan Street)",
                "City": "Shanghai",
                "Country": "China Mainland",
                "Award": "2 Stars"
            }
        },
        {
            "type": "Feature",
            "geometry": {
                "type": "Point",
                "coordinates": [
                    11.1568653,
                    46.6862223
                ]
            },
            "properties": {
                "Name": "Castel finedining",
                "City": "Tirol",
                "Country": "Italy",
                "Award": "2 Stars"
            }
        },
        {
            "type": "Feature",
            "geometry": {
                "type": "Point",
                "coordinates": [
                    13.2821211,
                    43.6806944
                ]
            },
            "properties": {
                "Name": "Madonnina del Pescatore",
                "City": "Marzocca",
                "Country": "Italy",
                "Award": "2 Stars"
            }
        },
        {
            "type": "Feature",
            "geometry": {
                "type": "Point",
                "coordinates": [
                    10.9961161,
                    45.4426941
                ]
            },